[
  {
      "category": "restaurant",
      "name": "Kalimera Kök & Bar",
      "tagline": "Grekland i Amhult",
      "img": "kalimera2019logo1_infopage.jpg",
      "street_address": "Gamla Flygplatsvägen 55",
      "zip_code":  "423 37 Torslanda",
      "geolocation": { "coordinates": [57.7104749043652, 11.772397766930807] },
      "phone_number": "031-92 22 23",
      "email": "kontakt@kalimeramezetapas.se",
      "menu": "https://kalimeramezetapas.se/meny/",
      "url": "https://kalimeramezetapas.se/"
    },
    {
      "category": "cafe",
      "name": "Green Market",
      "tagline": "Grön fika och mat i Amhult",
      "img": "Green-Market.jpeg",
      "street_address": "Gamla Flygplatsvägen 46",
      "zip_code": "423 37 Torslanda",
      "geolocation": { "coordinates": [57.71051483395212, 11.77393430556148] },
      "phone_number": "031-92 67 00",
      "email": "malin@greenmarket.se",
      "url": "https://www.greenmarket.se"
    },
    {
      "category": "restaurant",
      "name": "Tilda & Josper",
      "tagline": "Grill med asiatisk touch",
      "img": "Tilda_Josper.png",
      "street_address": "Gamla Flygplatsvägen 35",
      "zip_code": "423 37 Torslanda",
      "geolocation": { "coordinates": [57.71078363161316, 11.774188651588473] },
      "phone_number": "031-92 45 40",
      "url": "https://www.tildajosper.se/"
    },
    {
      "category": "restaurant",
      "name": "SanCero pizzeria",
      "tagline": "Pizza i Amhult",
      "img": "SanCero-logo.jpg",
      "street_address": "Flygfältsgatan 33",
      "zip_code": "423 37 Torslanda",
      "geolocation": { "coordinates": [57.70983383678416, 11.775598482272509] },
      "phone_number": "031-92 07 07",
      "url": "http://sancero.yourpage.se/"
    },
    {
      "category": "restaurant",
      "name": "Mr Thai Food",
      "tagline": "Thailand i Amhult",
      "img": "Mr_thai_food.jpg",
      "street_address": "Amhults torg 1",
      "zip_code":"423 37 Torslanda",
      "geolocation": { "coordinates": [57.71024595081448, 11.773123166930798] },
      "phone_number": "031-389 03 90",
      "online_order": "https://ujcorder.com/mtsweden/",
      "url": "https://mrthaifood.com/"
    },
    {
      "category": "restaurant",
      "name": "Nya flygande korven",
      "tagline": "Klassisk korvmoj i Amhult",
      "img": "Nya flygande korven.jpeg",
      "street_address": "Gamla Flygplatsvägen 18",
      "zip_code": "423 37 Torslanda",
      "geolocation": { "coordinates": [57.7123337125953, 11.782969636247717]},
      "phone_number": "+46 72 700 27 37",
      "url": "https://www.nyaflygandekorven.se"
    },
    {
      "category": "restaurant",
      "name": "Restaurang Hörnet",
      "tagline": "Traditionell kvarterskrog i Amhult",
      "img": "restaurang_hornet_logo.png",
      "street_address": "Gamla Flygplatsvägen 18",
      "zip_code":"423 37 Torslanda",
      "geolocation": { "coordinates": [57.71130334598533, 11.78097611295835] },
      "phone_number": "031-92 14 11",
      "email": "orahammarie@gmail.com",
      "menu": "https://restaurang-hornet.webnode.se/meny/",
      "url": "https://restaurang-hornet.webnode.se/"
    },
    {
      "category": "cafe",
      "name": "Sockermajas",
      "tagline": "Bageri, godheter och hjärta på Krysset",
      "img": "sockermaja_logo.png",
      "street_address": "Gamla flygplatsvägen 4",
      "zip_code": "423 37 Torslanda",
      "geolocation": { "coordinates": [57.71378690479265, 11.783892170029448]},
      "phone_number": "+46 73 593 00 60",
      "url": "https://sockermajas.se/"
    },
    {
      "category": "restaurant",
      "name": "Masala Corner",
      "tagline": "Indiskt på Krysset",
      "img": "Masala corner.jpg",
      "street_address": "Flygledarevägen 1",
      "zip_code": "423 37 Torslanda",
      "geolocation": { "coordinates": [57.71415709026885, 11.782596736249069]},
      "phone_number": "031-92 19 91",
      "email": "info@masalacorner.nu",
      "url": "https://www.masalacorner.nu/"
    },
    {
      "category": "restaurant",
      "name": "Torslanda Pizzeria",
      "tagline": "Pizza på Krysset",
      "img": "torslandapizzeria.jpg",
      "street_address": "Gamla Flygplatsvägen 1",
      "zip_code": "423 37 Torslanda",
      "geolocation": { "coordinates": [57.71391141627244, 11.782773228302759] },
      "phone_number": "031-92 40 10",
      "menu": "https://torslandapizzeria.se/meny/",
      "url": "http://torslandapizzeria.se"
    },
    {
      "category": "restaurant",
      "name": "Torslanda Thaikök",
      "tagline": "Thailand på Torget",
      "img": "Torslanda Thaikok.jpg",
      "street_address": "Torslanda torg 2",
      "zip_code": "423 32 Torslanda",
      "geolocation": { "coordinates": [57.724235965010315, 11.76709469762644] },
      "phone_number": "031-56 08 99",
      "online_order": "https://www.ujcorder.com/tt/",
      "url": "https://torslanda-thaikok.business.site/"
    },
    {
      "category": "restaurant",
      "name": "San Remo pizzeria",
      "tagline": "Pizza vid Krysset",
      "img": "san_remo_logo.jpg",
      "street_address": "Nordhagsvägen 28",
      "zip_code": "423 34 Torslanda",
      "geolocation": { "coordinates": [57.71598610308606, 11.781812374881271]},
      "phone_number": "031-92 31 66",
      "online_order": "https://sanremo.se/bestall-mat",
      "url": "https://sanremo.se/"
    },
    {
      "category": "restaurant",
      "name": "Tsuki Hana",
      "tagline": "Japanskt möter svenskt på Krysset",
      "img": "tsuki_hana_logo.jpg",
      "street_address": "Flygledarevägen 1",
      "zip_code": "423 37 Torslanda",
      "geolocation": {
        "coordinates": [57.713830017199626, 11.782481551591061]},
      "phone_number": "031- 92 46 80",
      "menu": "https://www.tsukihana.net/varmr-tter",
      "url": "https://www.tsukihana.net/"
    },
    {
      "category": "restaurant",
      "name": "Tommys pizzeria",
      "tagline": "Pizza på Torslanda torg",
      "img": "tommys_pizzeria.png",
      "street_address": "Torslanda torg",
      "zip_code": "423 32 Torslanda",
      "geolocation": { "coordinates": [57.72375662124198, 11.766673066941367]},
      "phone_number": "031-56 47 71",
      "menu": "http://tommyspizzeria.se/#menu5",
      "url": "http://tommyspizzeria.se/?fbclid=IwAR28krKPYoFcWN0cJ-IlF3dHrUPxn1n7P5Q8GgncDlvlHrqHNXQ0bs-6RM4"
    },
    {
      "category": "restaurant",
      "name": "Lillebygrillen",
      "tagline": "Road-diner i Lilleby",
      "img": "lillebygrillen_logo.png",
      "street_address": "Kongahällavägen",
      "zip_code": "423 51 Torslanda",
      "geolocation": { "coordinates": [57.7379117673747, 11.801405797637118]},
      "phone_number": "031-56 52 52",
      "email": "info@lillebygrillen.se",
      "url": "http://www.lillebygrillen.se/"
    },
    {
      "category": "cafe",
      "name": "Mjöviks bageri och gårdsbutik",
      "tagline": "Hantverksbageri i Lilleby",
      "img": "mjoviks_bageri_logo.png",
      "street_address": "Gamla Lillebyvägen 80",
      "zip_code": "423 53 Torslanda",
      "geolocation": { "coordinates": [57.74217858872147, 11.805996582298423] },
      "phone_number": "+46 70 576 41 71",
      "email": "mia@mjoviks.se",
      "url": "http://www.mjoviks.se/"
    },
    {
      "category": "cafe",
      "name": "Carls café & bistro",
      "tagline": "Oas vid havet",
      "img": "carls_cafe_logo.jpg",
      "street_address": "Sillviksvägen 2",
      "zip_code": "423 53 Torslanda",
      "url": "https://www.sillvik.nu/"
    },
    {
      "category": "restaurant",
      "name": "Vi släcker din hunger",
      "tagline": "Foodtruck från Lilleby",
      "img": "vi_slacker_din_hunger.jpg",
      "url": "https://www.facebook.com/vislackerdinhunger/"
    },
    {
      "category": "shopping",
      "name": "I dig denim",
      "tagline": "Denim i Amhult",
      "img": "idigdenim-logo.png",
      "street_address": "Gamla Flygplatsvägen 24",
      "zip_code": "423 37 Torslanda",
      "geolocation": { "coordinates": [57.71078325059228, 11.779907903133369] },
      "phone_number": "031-92 40 70",
      "email": "order@idigdenom.com",
      "web_shop": "https://idigdenim.com",
      "url": "https://idigdenim.com"
    },
    {
      "category": "shopping",
      "name": "My Baby",
      "tagline": "Allt till bebis i Amhult",
      "img": "my_baby_logo.jpg",
      "street_address": "Gamla Flygplatsvägen 24",
      "zip_code": "423 37 Torslanda",
      "geolocation": { "coordinates": [57.7109056243027, 11.779855226422535] },
      "phone_number": "031-92 40 54",
      "email": "butik@mybaby.se",
      "web_shop": "https://www.mybaby.se/",
      "url": "https://www.mybaby.se/"
    },
    {
      "category": "shopping",
      "name": "Färgboden Torslanda",
      "tagline": "Färg tapet och inredning på Krysset",
      "img": "fargboden_torslanda_white.png",
      "street_address": "Flygledarevägen 1",
      "zip_code": "423 37 Torslanda",
      "geolocation": { "coordinates": [57.71423192858455, 11.78248180313584] },
      "phone_number": "031-92 33 85",
      "email": "info@fargboden.se",
      "url": "https://fargboden.se/"
    },
    {
      "category": "beauty",
      "name": "Skin by Wihlney",
      "tagline": "Skönhet vid rececentrum",
      "img": "skinbywihlney.jpg",
      "street_address": "Fraktflyget 10",
      "zip_code":"423 37 Torslanda",
      "geolocation": { "coordinates": [57.71055070775348, 11.778680987790892] },
      "email": "info@skinbywihlney.se",
      "booking": "https://www.bokadirekt.se/places/skin-by-wihlney-14033",
      "web_shop": "https://skinbywihlney.se/butik/",
      "url": "https://skinbywihlney.se/"
    },
    {
      "category": "service",
      "name": "Torslanda skomakeri",
      "tagline": "Skor och nycklar i Amhult",
      "img": "torslandaskomakeri.jpg",
      "street_address": "Gamla Flygplatsvägen 35E",
      "zip_code": "423 37 Torslanda",
      "geolocation": { "coordinates": [57.71099505163472, 11.774430872448995] },
      "phone_number": "031-56 40 06",
      "url": "https://torslandasskomakeri.se/"
    },
    {
      "category": "service",
      "name": "Torslanda trafikskola",
      "tagline": "Körskola i Amhult",
      "img": "torslanda_trafikskola_logo_white.png",
      "street_address": "Gamla Flygplatsvägen 4",
      "zip_code": "423 37 Torslanda",
      "geolocation": { "coordinates": [57.71377198825294, 11.783982733819908] },
      "phone_number": "031-56 10 20",
      "email": "kontoret@torslandatrafikskola.se",
      "booking": "https://15176.str.se/e-handel/?mode=courses",
      "url": "http://www.torslandatrafikskola.se/"
    },
    {
      "category": "shopping",
      "name": "Vännplatsen second hand",
      "tagline": "Second hand i Torslanda",
      "img": "vannplatsen_logo.jpg",
      "street_address": "Hangarvägen 5",
      "zip_code": "423 37 Torslanda",
      "geolocation": { "coordinates": [57.71729010536801, 11.776847387795934] },
      "phone_number": "+46 70 222 70 09",
      "email": "vannplatsen@iogt.se",
      "url": "http://www.vannplatsen.se/"
    },
    {
      "category": "shopping",
      "name": "Cinco",
      "tagline": "Kläder i Amhult",
      "img": "cinco_logo.jpg",
      "street_address": "Flygfältsgatan 52",
      "zip_code": "423 37 Torslanda",
      "geolocation": { "coordinates": [57.70957761223955, 11.774694589031649] },
      "phone_number": "031-92 15 10",
      "url": "https://www.facebook.com/CincoAmhult/"
    },
    {
      "category": "shopping",
      "name": "iems",
      "tagline": "Inredning i Amhult",
      "img": "iems_logo.jpg",
      "street_address": "Flygfältsgatan 58",
      "zip_code": "423 37 Torslanda",
      "geolocation": { "coordinates": [57.710058140439784, 11.773752211672795] },
      "phone_number": "031-92 04 65",
      "email": "amhult@iems.se",
      "web_shop": "https://iems.se/",
      "url": "https://iems.se/butiker/goteborg-torslanda/"
    },
    {
      "category": "shopping",
      "name": "Hemtex",
      "tagline": "Heminredning i Amhult",
      "img": "hemtex_logo.jpg",
      "street_address": "Flygfältsgatan 56",
      "zip_code": "423 37 Torslanda",
      "geolocation": { "coordinates": [57.7097466156628, 11.774043425166427] },
      "phone_number": "031-92 13 46",
      "web_shop": "https://www.hemtex.se/",
      "url": "https://www.hemtex.se/hitta-butik/goteborg-amhult/"
    },
    {
      "category": "shopping",
      "name": "Lindex",
      "tagline": "Kläder i Amhult",
      "img": "lindex_logo.png",
      "street_address": "Flygfältsgatan 54",
      "zip_code": "423 37 Torslanda",
      "geolocation": { "coordinates": [57.70965804736693, 11.774430698179115] },
      "phone_number": "010-452 62 13",
      "web_shop": "https://www.lindex.com/se",
      "url": "https://www.lindex.com/se/hitta-din-butik/"
    },
    {
      "category": "shopping",
      "name": "Torslanda färg & tapet",
      "tagline": "Färg och tapet i Amhult",
      "img": "torslanda_farg_tapet_logo.jpeg",
      "street_address": "Gamla Flygplatsvägen 26-28",
      "zip_code": "423 37 Torslanda",
      "geolocation": { "coordinates": [57.71060953256613, 11.779996825166464] },
      "phone_number": "031-388 00 45",
      "email": "info@torslandafarg.se",
      "url": "http://www.torslandafarg.se/"
    },
    {
      "category": "service",
      "name": "Gillis Edman begravningsbyrå",
      "tagline": "Begravningsbyrå på Torslanda torg",
      "img": "gillis_edman_torslanda.svg",
      "street_address": "Torslanda torg 1",
      "zip_code": "423 32 Torslanda",
      "geolocation": { "coordinates": [57.72345275448625, 11.767529727015262] },
      "phone_number": "031-355 40 00",
      "email": "info@gillisedman.se",
      "url": "https://www.gillisedman.se/kontakt/torslanda/"
    },
    {
      "category": "service",
      "name": "Torslanda begravningsbyrå",
      "tagline": "Begravningsbyrå i Amhult",
      "img": "torslanda_begravningsbyra_logo.jpg",
      "street_address": "Flygfältsgatan 9",
      "zip_code": "423 37 Torslanda",
      "geolocation": { "coordinates": [57.71181812862386, 11.78456724871514] },
      "phone_number": "031-92 40 23",
      "email": "info@begrav.se",
      "url": "https://www.begrav.se/"
    },
    {
      "category": "restaurant",
      "name": "Björlanda burgan",
      "tagline": "Burgare med lokalproducerat kött",
      "img": "bjorlanda_burgan_logo.jpg",
      "street_address": "Björlandavägen",
      "zip_code": "423 59 Torslanda",
      "geolocation": { "coordinates": [57.75877116002803, 11.832104782839608] },
      "phone_number": "073-589 99 01",
      "email": "bjorlandaburgan@gmail.com",
      "url": "https://www.facebook.com/Bjorlandaburgan/"
    },
    {
      "category": "service",
      "name": "Floristmästarna Torslanda",
      "tagline": "Professionellt binderi i Amhult",
      "img": "floristmastarna_torslanda.jpg",
      "street_address": "Flygfältsgatan 9",
      "zip_code": "423 37 Torslanda",
      "geolocation": { "coordinates": [57.71181812862386, 11.78456724871514] },
      "phone_number": "031-13 33 81",
      "email": "info@floristmastarna.se",
      "url": "https://www.floristmastarna.se/"
    },
    {
      "category": "beauty",
      "name": "Apotek Hjärtat Amhult",
      "tagline": "Apotek i Amhult",
      "img": "apotek_hjartat_logo.jpg",
      "street_address": "Gamla Flygplatsvägen 60",
      "zip_code": "423 37 Torslanda",
      "geolocation": { "coordinates": [57.70934661128704, 11.772706913520972] },
      "phone_number": "0771-405 405",
      "web_shop": "https://www.apotekhjartat.se/",
      "url": "https://www.apotekhjartat.se/hitta-apotek-hjartat/?q=torslanda"
    },
    {
      "category": "beauty",
      "name": "Apotek Hjärtat Torslanda torg",
      "tagline": "Apotek på Torslanda torg",
      "img": "apotek_hjartat_logo.jpg",
      "street_address": "Torslanda torg 3",
      "zip_code": "423 32 Torslanda",
      "geolocation": { "coordinates": [57.7233757719704, 11.767026311673435] },
      "phone_number": "0771-405 405",
      "web_shop": "https://www.apotekhjartat.se/",
      "url": "https://www.apotekhjartat.se/hitta-apotek-hjartat/?q=torslanda"
    },
    {
      "category": "beauty",
      "name": "Kronans Apotek",
      "tagline": "Apotek i Amhult",
      "img": "kronans_apotek_logo.png",
      "street_address": "Gamla Flygplatsvägen 40",
      "zip_code": "423 37 Torslanda",
      "geolocation": { "coordinates": [57.710066677604736, 11.774632855850065] },
      "phone_number": "0771-612 612",
      "web_shop": "https://www.kronansapotek.se/",
      "url": "https://www.kronansapotek.se/store/Kronans%20Apotek%20Torslanda"
    },
    {
      "category": "beauty",
      "name": "Hälsokraft Torslanda",
      "tagline": "Hälsokost i Amhult",
      "img": "halsokraft_logo.png",
      "street_address": "Gamla Flygplatsvägen 46",
      "zip_code": "423 37 Torslanda",
      "geolocation": { "coordinates": [57.71009426592659, 11.774114727014597] },
      "phone_number": "031-92 04 10",
      "email": "torslanda@halsokraft.se",
      "booking": "https://www.bokadirekt.se/places/h%C3%A4lsokraft-torslanda-16139",
      "web_shop": "https://halsokraft.se/",
      "url": "https://www.facebook.com/halsokrafttorslanda/?ref=page_internal"
    },
    {
      "category": "beauty",
      "name": "Bling bling spa",
      "tagline": "Fixa naglar och fransar på Torslanda torg",
      "img": "bling_bling_spa_logo.jpg",
      "street_address": "Torslanda torg 1",
      "zip_code":"423 32 Torslanda",
      "geolocation": { "coordinates": [57.72362846036479, 11.767157150109828] },
      "phone_number": "0706-39 07 56",
      "email": "blingspatorslanda@gmail.com",
      "booking": "https://www.bokadirekt.se/places/bling-bling-spa-20842",
      "url": "https://www.facebook.com/blingspanailsfransar/about/?ref=page_internal"
    },
    {
      "category": "beauty",
      "name": "First Lady",
      "tagline": "Skönhet i Björlanda eller på plats",
      "img": "first_lady_logo.png",
      "street_address": "Stallvägen 57",
      "zip_code": "423 55 Torslanda",
      "geolocation": { "coordinates": [57.7541970204442, 11.820852627016668] },
      "email": "annika@firstlady.se",
      "booking": "https://www.bokadirekt.se/places/first-lady-14551",
      "url": "https://firstlady.se/"
    },
    {
      "category": "beauty",
      "name": "Meddo solarium",
      "tagline": "Sola på Torslanda torg",
      "img": "meddo_solarium_logo.png",
      "street_address": "Torslanda torg 3",
      "zip_code": "423 32 Torslanda",
      "geolocation": { "coordinates": [57.72339983750486, 11.766866327015256] },
      "phone_number": "073-525 57 58",
      "booking": "https://sunapp.repayal.com/",
      "url": "https://www.facebook.com/MeddoTorslanda/"
    },
    {
      "category": "beauty",
      "name": "Shiatsurummet",
      "tagline": "Japansk massage på Torslanda torg",
      "img": "shiatsurummet_logo.jpeg",
      "street_address": "Torslanda torg 1",
      "zip_code": "423 32 Torslanda",
      "geolocation": { "coordinates": [57.723617495366504, 11.767320455850701] },
      "phone_number": "0706-28 55 04",
      "email": "shiatsurummet@gmail.com",
      "booking": "https://www.bokadirekt.se/places/shiatsurummet--12539",
      "url": "https://shiatsurummet.se/"
    },
    {
      "category": "beauty",
      "name": "Friskis&Svettis",
      "tagline": "Träning i Amhult",
      "img": "friskissvettis.png",
      "street_address": "Postflyget 4",
      "zip_code": "423 37 Torslanda",
      "geolocation": { "coordinates": [57.70863822376895, 11.778304440508183] },
      "phone_number": "031-723 56 55",
      "booking": "https://onlinebokning.pastelldata.com/1000/",
      "url": "https://www.friskissvettis.se/Goteborg/Harfinnsvi/Torslanda"
    },
    {
      "category": "beauty",
      "name": "Nordic Wellness",
      "tagline": "Träna i Amhult",
      "img": "nordicwellness_logo.svg",
      "street_address": "Gamla Flygplatsvägen 26",
      "zip_code": "423 37 Torslanda",
      "geolocation": { "coordinates": [57.71019492619084, 11.780390727014598] },
      "phone_number": "010-155 52 86",
      "email": "torslanda@nordicwellness.se",
      "url": "https://nordicwellness.se/vara-klubbar/goteborg/torslanda-amhult/"
    },
    {
      "category": "beauty",
      "name": "Nordic Wellness",
      "tagline": "Träna på Torslanda torg",
      "img": "nordicwellness_logo.svg",
      "street_address": "Torslanda torg 1",
      "zip_code": "423 32 Torslanda",
      "geolocation": { "coordinates": [57.72363468308247, 11.767309727015249] },
      "phone_number": "010-155 52 72",
      "email": "torslanda.torg@nordicwellness.se",
      "url": "https://nordicwellness.se/vara-klubbar/goteborg/torslanda-torg/"
    },
    {
      "category": "beauty",
      "name": "Living People",
      "tagline": "Träna ute i Björlanda",
      "img": "livingpeople_logo.png",
      "url": "http://www.livingpeople.nu/"
    },
    {
      "category": "beauty",
      "name": "Salong Aquarius",
      "tagline": "Frisör vid Krysset",
      "img": "aquarius_logo.jpg",
      "street_address": "Gamla Flygplatsvägen 4",
      "zip_code": "423 37 Torslanda",
      "geolocation": { "coordinates": [57.71342269100402, 11.783789640508422] },
      "phone_number": "031-92 05 25",
      "url": "https://www.facebook.com/salongaquarius"
    },
    {
      "category": "beauty",
      "name": "Klippa Torslanda",
      "tagline": "Frisör i Amhult",
      "img": "klippa_logo.jpg",
      "street_address": "Amhultsvägen 3",
      "zip_code": "423 37 Torslanda",
      "geolocation": { "coordinates": [57.71048389572712, 11.773628484685531] },
      "phone_number": "031-92 03 10",
      "booking": "https://boka.itsperfect.se/25084612/Kund/Loggain?ReturnUrl=%2F25084612",
      "url": "https://klippa.nu/salonger/torslanda/"
    },
    {
      "category": "beauty",
      "name": "Klipperian Torslanda",
      "tagline": "Frisör på Torslanda torg",
      "img": "klipperian_logo.jpg",
      "street_address": "Torslanda torg 1",
      "zip_code": "423 32 Torslanda",
      "geolocation": { "coordinates": [57.72358884915506, 11.767331184686164] },
      "phone_number": "031-56 48 17",
      "email": "nyaklipperian@yahoo.se",
      "booking": "https://boka.hitta.se/salong/klipperian/1207",
      "url": "https://www.facebook.com/klipperiantorslanda/"
    },
    {
      "category": "beauty",
      "name": "Klippotek Dandy",
      "tagline": "Frisör i Amhult",
      "img": "klippotek_dandy_logo.png",
      "street_address": "Gamla Flygplatsvägen 35",
      "zip_code": "423 37 Torslanda",
      "geolocation": { "coordinates": [57.71029077103582, 11.774591240508242] },
      "phone_number": "031-788 92 92",
      "booking": "https://boka.hitta.se/salong/klippotek-dandy/1061",
      "url": "http://klippotekdandy.se/salonger/torslanda/"
    },
    {
      "category": "shopping",
      "name": "Blomsterlandet",
      "tagline": "Handelsträdgård i Amhult",
      "img": "blomsterlandet_logo.jpg",
      "street_address": "Flygfältsgatan 34",
      "zip_code": "423 37 Torslanda",
      "geolocation": { "coordinates": [57.70973976601238, 11.783141450925429] },
      "phone_number": "031-388 60 00",
      "email": "torslanda@blomsterlandet.se",
      "web_shop": "https://www.blomsterlandet.se/",
      "url": "https://www.blomsterlandet.se/hitta-din-butik/torslanda/"
    },
    {
      "category": "shopping",
      "name": "Malms väskor",
      "tagline": "Väskor i Amhult",
      "img": "malms_vaskor_logo.jpg",
      "street_address": "Gamla Flygplatsvägen 52",
      "zip_code": "423 37 Torslanda",
      "geolocation": { "coordinates": [57.71001038884916, 11.773051102692985] },
      "phone_number": "031-56 41 42",
      "email": "info@malmsvaskor.se",
      "url": "http://malmsvaskor.se/2.html"
    },
    {
      "category": "shopping",
      "name": "Torslanda Blomsterhandel",
      "tagline": "Florist på Torslanda torg",
      "img": "torslanda_blomsterhandel_logo.jpg",
      "street_address": "Torslanda torg 6",
      "zip_code": "423 32 Torslanda",
      "geolocation": { "coordinates": [57.72374161201119, 11.766773255942365] },
      "phone_number": "031-56 15 58",
      "url": "https://www.facebook.com/pages/category/Florist/Torslanda-Blomsterhandel-AB-107865215948388/"
    },
    {
      "category": "shopping",
      "name": "Torslanda djurbutik veterinärfoder",
      "tagline": "Djurbutik i Amhult",
      "img": "torslanda_djurbutik_veterinarfoder_logo.jpg",
      "street_address": "Gamla Flygplatsvägen 18",
      "zip_code": "423 37 Torslanda",
      "geolocation": { "coordinates": [57.71046135713694, 11.780447810716092] },
      "phone_number": "031-92 00 54",
      "email": "info@torslandadjurbutik.se",
      "url": "https://www.torslandadjurbutik.se/"
    },
    {
      "category": "shopping",
      "name": "Elon Torslanda",
      "tagline": "Vitvaror och annat till hemmet vid resecentrum",
      "img": "elon_logo.png",
      "street_address": "Postflyget 13",
      "zip_code": "423 37 Torslanda",
      "geolocation": { "coordinates": [57.70937694826014, 11.779725611762514] },
      "phone_number": "031-795 00 08",
      "email": "torslanda.friggahuset@elon.se",
      "web_shop": "https://www.elon.se/",
      "url": "https://www.elon.se/butiker/torslanda/elon-friggahuset-torslanda"
    },
    {
      "category": "shopping",
      "name": "Byggmax Torslanda",
      "tagline": "Bygghandel vid Krysset",
      "img": "byggmax_torslanda.svg",
      "street_address": "Gamla Flygplatsvägen 4",
      "zip_code": "423 37 Torslanda",
      "geolocation": { "coordinates": [57.713465983546826, 11.78393472710605] },
      "phone_number": "0771-89 00 89",
      "web_shop": "https://www.byggmax.se/",
      "url": "https://www.byggmax.se/butiker/gbg-torslanda"
    },
    {
      "category": "service",
      "name": "Mobilkliniken",
      "tagline": "Fixar mobil/platta på Torslanda torg",
      "img": "mobilkliniken_logo.jpg",
      "street_address": "Torslanda torg 3A",
      "zip_code": "423 32 Torslanda",
      "geolocation": { "coordinates": [57.72318122623783, 11.766955184778196] },
      "phone_number": "0762-40 62 40",
      "url": "https://www.facebook.com/MobilKliniken.T/"
    },
    {
      "category": "service",
      "name": "Gysens hundcenter",
      "tagline": "Hunddagis på Torslanda torg",
      "img": "gysens_hundcenter_logo.png",
      "street_address": "Torslanda torg 3",
      "zip_code": "423 32 Torslanda",
      "geolocation": { "coordinates": [57.72337119121347, 11.76684486943486] },
      "url": "http://www.gysenhttps://meet.google.com/ntz-yikp-xrys.se/"
    },
    {
      "category": "groceries",
      "name": "Godishuset",
      "tagline": "Godis i centrala Torslanda",
      "img": "godishuset_logo.jpg",
      "street_address": "Vildkaprifolen 5",
      "zip_code": "423 33 Torslanda",
      "geolocation": { "coordinates": [57.72112886303996, 11.769413182927199] },
      "phone_number": "031-56 12 20",
      "url": "https://godis-huset.business.site/"
    },
    {
      "category": "groceries",
      "name": "Hemköp",
      "tagline": "Livsmedel på Torget",
      "img": "hemkop_logo.jpeg",
      "street_address": "Torslanda torg",
      "zip_code": "423 32 Torslanda",
      "geolocation": { "coordinates": [57.72394308649705, 11.766956711763186] },
      "phone_number": "031-56 76 40",
      "web_shop":"https://www.hemkop.se/butik/4792",
      "url": "https://www.hemkop.se/butik/4792?gclsrc=aw.ds&gclsrc=aw.ds&gclid=CjwKCAjwhOD0BRAQEiwAK7JHmANmzp9uZKA1SCpeDaZmMNPHNefYyK-r824u38UXs6vBgsPk_HIKCBoCRDUQAvD_BwE"
    },
    {
      "category": "groceries",
      "name": "Ica Maxi",
      "tagline": "Stormarknad i Amhult",
      "img": "ica_maxi_torslanda_logo.png",
      "street_address": "Gamla Flygplatsvägen 60",
      "zip_code": "423 37 Torslanda",
      "geolocation": { "coordinates": [57.709629473431015, 11.772331898270046] },
      "phone_number": "031-720 56 00",
      "email": "kundkontakt.torslanda@maxi.ica.se",
      "web_shop": "https://www.ica.se/handla/maxi-ica-stormarknad-torslanda-id_11601/",
      "url": "https://www.ica.se/butiker/maxi/goteborg/maxi-ica-stormarknad-torslanda-11601/start/"
    },
    {
      "category": "groceries",
      "name": "Ica Nära",
      "tagline": "Livsmedel i Björlanda",
      "img": "ica-nara-logotyp.png",
      "street_address": "Linas lycka 2",
      "zip_code": "423 59 Torslanda",
      "geolocation": { "coordinates": [57.75947865263852, 11.832472084779875] },
      "phone_number": "031-92 52 95",
      "url": "https://www.ica.se/butiker/nara/goteborg/ica-nara-bjorlanda-16621/start/?gclid=Cj0KCQjws_r0BRCwARIsAMxfDRgHJib6Ty59kQB4UMsKYHn9RfVOuEHwYlU-EZ5arexJEma3sW33WT8aAtw7EALw_wcB"
    },
    {
      "category": "groceries",
      "name": "Willys",
      "tagline": "Stormarknad i Amhult",
      "img": "willys_logo.svg",
      "url": "https://www.willys.se/butik/2274"
    },
    {
      "category": "groceries",
      "name": "Willys Hemma",
      "tagline": "Livsmedel på Runskriftsgatan",
      "img": "willys_hemma_logo.png",
      "street_address": "Runskriftsgatan 1",
      "zip_code": "423 47 Torslanda",
      "geolocation": { "coordinates": [57.735363794392576, 11.770212159940007] },
      "phone_number": "031-315 01 70",
      "url": "https://www.willys.se/butik/2855"
    },
    {
      "category": "groceries",
      "name": "Torslanda fisk",
      "tagline": "Havets delikatesser på Torslanda torg",
      "img": "torslanda_fisk_logo.png",
      "street_address": "Torslanda torg 1",
      "zip_code": "423 32 Torslanda",
      "geolocation": { "coordinates": [57.723737795058966, 11.767167298270698] },
      "phone_number": "031-56 48 90",
      "url": "http://www.torslandafisk.se/"
    },
    {
      "category": "groceries",
      "name": "Torslanda frukthall",
      "tagline": "Frukt å grönt på Torslanda torg",
      "img": "torslanda_frukthall_logo.jpg",
      "street_address": "Torslanda torg 2",
      "zip_code": "423 32 Torslanda",
      "geolocation": { "coordinates": [57.72363221988583, 11.766911069434874] },
      "phone_number": "031-56 24 10",
      "url": "https://www.facebook.com/torslandafrukthall"
    },
    {
      "category": "groceries",
      "name": "Björlanda Fisk och skaldjur",
      "tagline": "Havets delikatesser i Björlanda",
      "img": "bjorlanda_fisk_skaldjur_logo.jpg",
      "street_address": "Linas lycka 6",
      "zip_code": "423 59 Torslanda",
      "geolocation": { "coordinates": [57.75919437716396, 11.832072540600697] },
      "phone_number": "031-92 50 40",
      "url": "http://bjorlandafisk.se/index.html"
    },
    {
      "category": "groceries",
      "name": "Åkes hönökaka",
      "tagline": "Bräckbod vid Krysset",
      "img": "akes_honokaka_logo.png",
      "street_address": "Nordhagsvägen 16",
      "zip_code": "423 34 Torslanda",
      "geolocation": { "coordinates": [57.7172885862374, 11.77898535594207] },
      "phone_number": "031-92 36 20",
      "url": "http://www.honokaka.se/kontakt/oppettider"
    },
    {
      "category": "beauty",
      "name": "Topskills",
      "tagline": "Coachning och Digitalisering vid Krysset",
      "img": "topskills_logo.jpg",
      "phone_number": "0768-977 666",
      "email": "info@topskills.se",
      "url": "https://topskills.se"
    }
  ]